"entidad","nombre_registro","direccion","direccion_limpio","latitud","longitud","contacto"
"AGUASCALIENTES","DIRECCIÓN GENERAL DEL REGISTRO CIVIL","Héroes de Nacozari esq. Av. López Mateos, Col. San Luis, C.P. 20250, Aguascalientes, Ags.","HÉROES DE NACOZARI ESQUINA AVENIDA LÓPEZ MATEOS, COLONIA SAN LUIS, CP 20250, AGUASCALIENTES, AGUASCALIENTES","21.876010001000452","-102.2762706209997","01 449 9 10 26 46 ext. 6322"
"AGUASCALIENTES","REGISTRO CIVIL OFICIALÍA DE ASIENTOS","Plaza Juárez no.3, Col. Juárez C.P. 20250, Asientos, Ags.","PLAZA JUÁREZ NO3, COLONIA JUÁREZ CP 20250, ASIENTOS, AGUASCALIENTES","21.876010001000452","-102.2762706209997","01 800 900 2002 ext. 2810"
"AGUASCALIENTES","REGISTRO CIVIL OFICIALÍA DE CALVILLO","Palacio de Justicia Guanajuato s/n, Col. Centro, C.P. 20250, Calvillo, Ags.","PALACIO DE JUSTICIA GUANAJUATO S/N, COLONIA CENTRO, CP 20250, CALVILLO, AGUASCALIENTES","21.876010001000452","-102.2762706209997","01 449 956 26 11 ext. 2814"
"AGUASCALIENTES","REGISTRO CIVIL OFICIALÍA DE CIÉNEGA GRANDE","Francisco I Madero s/n, Col. Centro, C.P. 20722, Asientos, Ags.","FRANCISCO I MADERO S/N, COLONIA CENTRO, CP 20722, ASIENTOS, AGUASCALIENTES","22.192760434000434","-102.01997464099969","01 800 900 2002 ext. 2817"
"AGUASCALIENTES","REGISTRO CIVIL OFICIALÍA DE COSIO","Estación de Desarrollo, Prolongación Esteban´s Castoreña s/n, Col. Centro, C.P. 20460, Cosio, Ags.","ESTACIÓN DE DESARROLLO, PROLONGACIÓN ESTEBAN´S CASTOREÑA S/N, COLONIA CENTRO, CP 20460, COSIO, AGUASCALIENTES","22.366526235000435","-102.29745464099966","Tel.:01 800 900 2002 ext. 2828"
"AGUASCALIENTES","REGISTRO CIVIL OFICIALÍA IGNACIO ZARAGOZA","Delegación Municipal Plaza Gámez Orozco no. 102, Col. Centro, C.P. 20980, Jesús María, Ags.","DELEGACIÓN MUNICIPAL PLAZA GÁMEZ OROZCO NO 102, COLONIA CENTRO, CP 20980, JESÚS MARÍA, AGUASCALIENTES","21.96497021300047","-102.3475797049997","01 449 9 56 71 10"
"AGUASCALIENTES","REGISTRO CIVIL OFICIALÍA DE INSURGENTES","Av. de la Convención Norte 1207, Col. Centro, C.P. 20287, Aguascalientes, Ags.","AVENIDA DE LA CONVENCIÓN NORTE 1207, COLONIA CENTRO, CP 20287, AGUASCALIENTES, AGUASCALIENTES","10.294453736000435","-67.70173742899965","01 800 900 2002 ext. 2806"
"AGUASCALIENTES","REGISTRO CIVIL OFICIALÍA DE JESÚS GÓMEZ PORTUGAL","Delegación Municipal Venustiano Carranza no. 20, Col. Centro, C.P. 20909, Jesús María, Ags.","DELEGACIÓN MUNICIPAL VENUSTIANO CARRANZA NO 20, COLONIA CENTRO, CP 20909, JESÚS MARÍA, AGUASCALIENTES","21.994781392000448","-102.28890496999969","01 449 973 05 80 ext. 2815"
"AGUASCALIENTES","REGISTRO CIVIL OFICIALÍA DE JESÚS MARÍA","Emiliano Zapata no. 109, Col. Centro, C.P. 20900, Jesús María, Ags.","EMILIANO ZAPATA NO 109, COLONIA CENTRO, CP 20900, JESÚS MARÍA, AGUASCALIENTES","21.99387524800045","-102.33538732299968","01 800 900 2002 ext. 2819"
"AGUASCALIENTES","REGISTRO CIVIL OFICIALÍA JESÚS TERÁN PEREDO","Pascual Cornejo no. 801, Col. Progreso, C.P. 20179,, Aguascalientes, Ags.","PASCUAL CORNEJO NO 801, COLONIA PROGRESO, CP 20179,, AGUASCALIENTES, AGUASCALIENTES","21.915326025000468","-102.26433497199969","01 800 900 2002 ext. 2803"
"AGUASCALIENTES","REGISTRO CIVIL OFICIALÍA MALPASO","Calle 16 de septiembre no. 666, Col. Centro, C.P. 20809, Calvillo, Ags.","CALLE 16 DE SEPTIEMBRE NO 666, COLONIA CENTRO, CP 20809, CALVILLO, AGUASCALIENTES","59.915690215000495","10.824096965000422","01 800 900 2002 ext. 2807"
"AGUASCALIENTES","REGISTRO CIVIL OFICIALÍA LA LABOR","Plaza Principal s/n, Col. La Labor, C.P. 20830, Calvillo, Ags.","PLAZA PRINCIPAL S/N, COLONIA LA LABOR, CP 20830, CALVILLO, AGUASCALIENTES","21.84628021800046","-102.71418965399965","01 800 900 2002 ext. 2833"
"AGUASCALIENTES","REGISTRO CIVIL OFICIALÍA OJOCALIENTE","Delicias s/n, Col. Centro, C.P. 20860, Calvillo, Ags.","DELICIAS S/N, COLONIA CENTRO, CP 20860, CALVILLO, AGUASCALIENTES","21.876125121000427","-102.67604970699966","01 800 900 2002 ext. 2809"
"AGUASCALIENTES","REGISTRO CIVIL OFICIALÍA DE PALO ALTO","Calle 20 de noviembre no. 103, Col. Centro Palo Alto, C.P. 20330, El Llano, Ags.","CALLE 20 DE NOVIEMBRE NO 103, COLONIA CENTRO PALO ALTO, CP 20330, EL LLANO, AGUASCALIENTES","21.91630397700044","-101.96464968699968","01 496 967 32 01"
"AGUASCALIENTES","REGISTRO CIVIL OFICIALÍA PABELLÓN DE ARTEAGA","Venustiano Carranza s/n esq. Lerdo de Tejada, Col. Centro, C.P. 20660, Pabellón de Arteaga, Ags.","VENUSTIANO CARRANZA S/N ESQUINA LERDO DE TEJADA, COLONIA CENTRO, CP 20660, PABELLÓN DE ARTEAGA, AGUASCALIENTES","21.882310221000466","-102.29417974899968","01 800 900 2002 ext. 2822"
"AGUASCALIENTES","REGISTRO CIVIL OFICIALÍA PABELLÓN DE HIDALGO","Josefa O. de Domínguez no. 202, Col. Centro, Rincón de Romos, Ags.","JOSEFA O DE DOMÍNGUEZ NO 202, COLONIA CENTRO, RINCÓN DE ROMOS, AGUASCALIENTES","22.228510361000474","-102.32075968299966","01 449 967 51 43"
"AGUASCALIENTES","REGISTRO CIVIL OFICIALÍA SALTO DE LOS SALADOS","Delegación Municipal Emiliano Zapata no. 213, Col. Salto de los Salados, C.P. 20340, Aguascalientes, Ags.","DELEGACIÓN MUNICIPAL EMILIANO ZAPATA NO 213, COLONIA SALTO DE LOS SALADOS, CP 20340, AGUASCALIENTES, AGUASCALIENTES","21.79869518600043","-102.2710203039997","01 800 900 2002 ext. 2801"
"AGUASCALIENTES","REGISTRO CIVIL OFICIALÍA SAN JOSÉ DE GRACIA",": P. Municipal , Calle Juan Domínguez No. 101, Col. San José de Gracia, C.P. 20576, San José de Gracia, Ags."," P MUNICIPAL , CALLE JUAN DOMÍNGUEZ NO 101, COLONIA SAN JOSÉ DE GRACIA, CP 20576, SAN JOSÉ DE GRACIA, AGUASCALIENTES","21.882310221000466","-102.29417974899968","01 800 900 2002 ext. 2826"
"AGUASCALIENTES","REGISTRO CIVIL OFICIALÍA SANDOVALES","Delegación Municipal Sandovales s/n, Col. Centro, C.P. 20381, El Llano, Ags.","DELEGACIÓN MUNICIPAL SANDOVALES S/N, COLONIA CENTRO, CP 20381, EL LLANO, AGUASCALIENTES","21.882310221000466","-102.29417974899968","01 800 900 2002 ext. 2031"
"AGUASCALIENTES","REGISTRO CIVIL CLÍNICA IMSS 1","Av. de la Convención y José Ma Chávez s/n esq. con Jardín del Estudiante, Col. Fracc. Boulevares, C.P. 20270, Ags.","AVENIDA DE LA CONVENCIÓN Y JOSÉ MA CHÁVEZ S/N ESQUINA CON JARDÍN DEL ESTUDIANTE, COLONIA FRACC BOULEVARES, CP 20270, AGUASCALIENTES","21.86600252000045","-102.28919979999966","01 800 900 2002 ext. 2825"
"AGUASCALIENTES","REGISTRO CIVIL CLÍNICA IMSS 2","Av. De los Conos s/n, Col. Ojo Caliente, C.P. 20010, Aguascalientes, Ags.","AVENIDA DE LOS CONOS S/N, COLONIA OJO CALIENTE, CP 20010, AGUASCALIENTES, AGUASCALIENTES","21.89633536800045","-102.31663678499967","01 800 900 2002 ext. 2824"
"AGUASCALIENTES","REGISTRO CIVIL CLÍNICA ISSSTE","Av. Universidad y San Cosme s/n, Col. Fraccionamiento San Cayetano, C.P. 20010, Aguascalientes, Ags.","AVENIDA UNIVERSIDAD Y SAN COSME S/N, COLONIA FRACCIONAMIENTO SAN CAYETANO, CP 20010, AGUASCALIENTES, AGUASCALIENTES","21.89633536800045","-102.31663678499967","01 800 900 2002 ext. 2821"
"AGUASCALIENTES","REGISTRO CIVIL OFICIALÍA SATÉLITE MORELOS","Delegación Municipal Siglo XXI no. 704, Fracc, Morelos, Aguascalientes, Ags.","DELEGACIÓN MUNICIPAL SIGLO XXI NO 704, FRACC, MORELOS, AGUASCALIENTES, AGUASCALIENTES","21.882310221000466","-102.29417974899968","01 800 900 2002 ext. 8688 / 01 449 977 75 68"
"AGUASCALIENTES","REGISTRO CIVIL OFICIALÍA VALLE DE LOS CACTUS","Recinto Joconostle local Comercial no. 3, Fracc. Valle de los Cactus, Aguascalientes, Ags.","RECINTO JOCONOSTLE LOCAL COMERCIAL NO 3, FRACC VALLE DE LOS CACTUS, AGUASCALIENTES, AGUASCALIENTES","21.882310221000466","-102.29417974899968","01 449 9 10 26 46 ext. 2835"
"AGUASCALIENTES","REGISTRO CIVIL OFICIALÍA VILLA DE JUÁREZ","Delegación Municipal Jesús Marmolejo no. 211 Col. Villa Juárez C.P. 20700, Asientos, Ags.","DELEGACIÓN MUNICIPAL JESÚS MARMOLEJO NO 211 COLONIA VILLA JUÁREZ CP 20700, ASIENTOS, AGUASCALIENTES","22.09258532700045","-102.06831031499968","01 800 900 2002 ext. 2813"
"AGUASCALIENTES","REGISTRO CIVIL OFICIALÍA 010 (ISSSTE)","Av. Universidad y San Cosme s/n, Col. Fraccionamiento San Cayetano C.P. 20010, Aguascalientes, Ags.","AVENIDA UNIVERSIDAD Y SAN COSME S/N, COLONIA FRACCIONAMIENTO SAN CAYETANO CP 20010, AGUASCALIENTES, AGUASCALIENTES","21.89633536800045","-102.31663678499967","01 800 900 2002 ext. 2821"
"AGUASCALIENTES","INSTITUTO DE EDUCACIÓN DE AGUASCALIENTES","Carr. a San Luis Potosí n° 601, Fracc. Ojocaliente, C.P. 20190, Aguascalientes, Ags.","CARR A SAN LUIS POTOSÍ N° 601, FRACC OJOCALIENTE, CP 20190, AGUASCALIENTES, AGUASCALIENTES","21.881065032000436","-102.2715719689997","01 449 910 56 31- 910 56 83"
"AGUASCALIENTES","INSTITUTO NACIONAL DE MIGRACIÓN DELEGACIÓN REGIONAL AGUASCALIENTES","Juan de Montoso n° 223, Col. Centro, Aguascalientes, Ags.","JUAN DE MONTOSO N° 223, COLONIA CENTRO, AGUASCALIENTES, AGUASCALIENTES","21.882310221000466","-102.29417974899968","01 449 910 56 31"
