"entidad","nombre_registro","direccion","direccion_limpio","latitud","longitud","contacto"
"SONORA","OFICIALÍA 01 DEL REGISTRO CIVIL HERMOSILLO","Huasteca 18-a, col. modelo, Hermosillo, Sonora","HUASTECA 18-A, COLONIA MODELO, HERMOSILLO, SONORA","29.07925993900045","-110.94870991899967","215 57 84"
"SONORA","OFICIALÍA 02 DEL REGISTRO CIVIL HERMOSILLO","Aguascalientes 351-a, entre Loaiza y Olivares, Hermosillo, Sonora","AGUASCALIENTES 351-A, ENTRE LOAIZA Y OLIVARES, HERMOSILLO, SONORA","29.10205999700048","-110.98061966799969","216 88 01"
"SONORA","OFICIALÍA 03 DEL REGISTRO CIVIL HERMOSILLO","Perimetral Nte. 110, Esquina con solidaridad, edificio CUM, Hermosillo, Sonora","PERIMETRAL NTE 110, ESQUINA CON SOLIDARIDAD, EDIFICIO CUM, HERMOSILLO, SONORA","-17.5936199399996","-54.7453699819996","216 92 60 y 216"
"SONORA","OFICIALÍA 01 DEL REGISTRO CIVIL OBREGON","Edificio del gobierno del Estado, Sinaloa y Montero Morales, Cd. Obregón, Sonora","EDIFICIO DEL GOBIERNO DEL ESTADO, SINALOA Y MONTERO MORALES, CD OBREGÓN, SONORA","0","0","414 00 89"
"SONORA","OFICIALÍA 01 DEL REGISTRO CIVIL OBREGON","No reelección 107 Pte., Cd. Obregón, Sonora","NO REELECCIÓN 107 PTE, CD OBREGÓN, SONORA","27.492849927000464","-109.93537996099968","414 77 22"
"SONORA","OFICIALÍA DEL REGISTRO CIVIL CANANEA","Avenida obregón y calle cuarta este 5, Cananea, Sonora","AVENIDA OBREGÓN Y CALLE CUARTA ESTE 5, CANANEA, SONORA","37.98329399642188","-120.38218911693349","332 59 32"
"SONORA","OFICIALÍA DEL REGISTRO CIVIL VILLA DE SERIS","Rosales 9 entre blvd. Vildósola y Jesús García, col. villa de seris, Hermosillo, Sonora","ROSALES 9 ENTRE BLVD VILDÓSOLA Y JESÚS GARCÍA, COLONIA VILLA DE SERIS, HERMOSILLO, SONORA","29.07925993900045","-110.94870991899967","250 47 05"
"SONORA","OFICIALÍA DEL REGISTRO CIVIL AGUA PRIETA","Calle 7, Ave. 8, local 2, Agua Prieta, Sonora","CALLE 7, AVE 8, LOCAL 2, AGUA PRIETA, SONORA","37.98329399642188","-120.38218911693349","338 13 89"
"SONORA","OFICIALÍA DEL REGISTRO CIVIL ALAMOS","Palacio municipal, ave. Juárez (s/n), Alamos, Sonora","PALACIO MUNICIPAL, AVE JUÁREZ (S/N), ALAMOS, SONORA","0","0","428 10 32"
"SONORA","OFICIALÍA DEL REGISTRO CIVIL BACOBAMPO","Calle chihuahua s/n, Depto. 2, Bacobampo, Sonora","CALLE CHIHUAHUA S/N, DEPTO 2, BACOBAMPO, SONORA","26.98409993800044","-109.65320977499971","427 09 85"
"SONORA","OFICIALÍA DEL REGISTRO CIVIL VILLA JUÁREZ","Palacio municipal, Plutarco elías calles (sin número), Benito juárez, Sonora","PALACIO MUNICIPAL, PLUTARCO ELÍAS CALLES (SIN NÚMERO), BENITO JUÁREZ, SONORA","0","0","435 08 47"
"SONORA","OFICIALÍA DEL REGISTRO CIVIL CABORCA","Edificio del estado, calle 6ta. entre Q y R, col. centro, Caborca, Sonora","EDIFICIO DEL ESTADO, CALLE 6TA ENTRE Q Y R, COLONIA CENTRO, CABORCA, SONORA","30.717489956000463","-112.15884983499967","372 69 05"
"SONORA","OFICIALÍA DEL REGISTRO CIVIL CÓCORIT","Argentina y Yáñez (sin número), Cócorit, Sonora","ARGENTINA Y YÁÑEZ (SIN NÚMERO), CÓCORIT, SONORA","0","0","418 07 53"
"SONORA","OFICIALÍA DEL REGISTRO CIVIL CUMPAS","ave. a no. 720, Cumpas, Sonor","AVE A NO 720, CUMPAS, SONOR","60.95543032800049","9.732760089000465","346-01-10"
"SONORA","OFICIALÍA DEL REGISTRO CIVIL EMPALME","Nicolás Bravo y Héroe de Nacozari, Empalme, Sonora","NICOLÁS BRAVO Y HÉROE DE NACOZARI, EMPALME, SONORA","25.722249836000458","-100.27288027599968","223-12-66"
"SONORA","OFICIALÍA DEL REGISTRO CIVIL ETCHOJOA","Ave. Miguel Hidalgo entre Blvd. Rafaela Rodríguez y 16 de septiembre, etchojoa, sonora","AVE MIGUEL HIDALGO ENTRE BLVD RAFAELA RODRÍGUEZ Y 16 DE SEPTIEMBRE, ETCHOJOA, SONORA","26.91246996500047","-109.62649991999967","425 06 65"
"SONORA","OFICIALÍA DEL REGISTRO CIVIL GUAYMAS","Edificio del Estado, calle 19 y Avenida 17, int. 1 planta baja, Guaymas, Sonora","EDIFICIO DEL ESTADO, CALLE 19 Y AVENIDA 17, INT 1 PLANTA BAJA, GUAYMAS, SONORA","27.911329648000446","-110.90867970699969","222 25 40"
"SONORA","OFICIALÍA DEL REGISTRO CIVIL HUATABAMPO","Edificio del gobierno del Estado, No reelección (sin número), entre Constitución y 16 de septiembre, Huatabampo, Sonora","EDIFICIO DEL GOBIERNO DEL ESTADO, NO REELECCIÓN (SIN NÚMERO), ENTRE CONSTITUCIÓN Y 16 DE SEPTIEMBRE, HUATABAMPO, SONORA","26.826689961000454","-109.6398198979997","426 04 31"
"SONORA","OFICIALÍA DEL REGISTRO CIVIL MAGDALENA DE KINO","Avenida 5 de mayo 100, col. centro, Magdalena de Kino, Sonora","AVENIDA 5 DE MAYO 100, COLONIA CENTRO, MAGDALENA DE KINO, SONORA","30.63496976200048","-110.9486696509997","322 09 70"
"SONORA","OFICIALÍA DEL REGISTRO CIVIL NACOZARI DE GARCIA","Palacio Municipal, Plaza Jesús García 2, Nacozari de García, Sonora","PALACIO MUNICIPAL, PLAZA JESÚS GARCÍA 2, NACOZARI DE GARCÍA, SONORA","37.98329399642188","-120.38218911693349","342-0088"
"SONORA","OFICIAL DEL REGISTRO CIVIL NAVOJOA","Verbena 113, Brisas del Valle, Navajoa","VERBENA 113, BRISAS DEL VALLE, NAVAJOA","21.985912064000445","-98.99380768799966","422 4635"
"SONORA","OFICIALÍA DEL REGISTRO CIVIL NOGALES SONORA","Edificio del Estado, Campillo e Ingenieros, Nogales, Sonora","EDIFICIO DEL ESTADO, CAMPILLO E INGENIEROS, NOGALES, SONORA","0","0","312 35 05"
"SONORA","OFICIALÍA DEL REGISTRO CIVIL POBLADO MIGUEL ALEMÁN","Carretera a Bahía de kino, kilómetro 62 y 12 de octubre, Poblado miguel Alemán, Sonora","CARRETERA A BAHÍA DE KINO, KILÓMETRO 62 Y 12 DE OCTUBRE, POBLADO MIGUEL ALEMÁN, SONORA","32.46084990200046","-114.78230994899968","241 12 90"
"SONORA","OFICIALÍA DEL REGISTRO CIVIL PUERTO PEÑASCO","Palacio Municipal, blvd. Benito Juárez (sin número), Puerto Peñasco, Sonora","PALACIO MUNICIPAL, BLVD BENITO JUÁREZ (SIN NÚMERO), PUERTO PEÑASCO, SONORA","0","0","383 17 10"
"SONORA","OFICIALÍA DEL REGISTRO CIVIL SAHUARIPA","Hidalgo y avenida Meneses, Sahuaripa, Sonora","HIDALGO Y AVENIDA MENESES, SAHUARIPA, SONORA","0","0","343 05 66"
"SONORA","OFICIALÍA DEL REGISTRO CIVIL SAN IGNACIO COHUIRIMPO","Francisco Madero entre Benito Juárez y zaragoza, San Ignacio Cohuirimpo, Sonora","FRANCISCO MADERO ENTRE BENITO JUÁREZ Y ZARAGOZA, SAN IGNACIO COHUIRIMPO, SONORA","0","0","423-04-26"
"SONORA","OFICIALÍA DEL REGISTRO CIVIL SAN LUIS RIO COLORADO","Edificio del Estado, Hidalgo, entre cuarta y quinta, San Luis Río Colorado, Sonora","EDIFICIO DEL ESTADO, HIDALGO, ENTRE CUARTA Y QUINTA, SAN LUIS RÍO COLORADO, SONORA","0","0","534 16 81"
"SONORA","OFICIALÍA DEL REGISTRO CIVIL SAN PEDRO RÍO MAYO","Domicilio conocido, San Pedro Río Mayo, Sonora","DOMICILIO CONOCIDO, SAN PEDRO RÍO MAYO, SONORA","0","0","427 09 84"
"SONORA","OFICIALÍA DEL REGISTRO CIVIL SANTA ANA","Palacio municipal, Avenida Serna y calle Zaragoza, Santa Ana, Sonora","PALACIO MUNICIPAL, AVENIDA SERNA Y CALLE ZARAGOZA, SANTA ANA, SONORA","0","0","324 02 69"
"SONORA","OFICIALÍA DEL REGISTRO CIVIL URES","Palacio Municipal, Zaragoza número 1, Ures, Sonora","PALACIO MUNICIPAL, ZARAGOZA NÚMERO 1, URES, SONORA","29.429589831000442","-110.37772988099971","232 02 48"
